,City,Lat,Lng,Max Temp,Humidity,Cloudiness,Wind Speed,Country,Date
0,teahupoo,-17.83,-149.27,28.0,58,40,2.6,PF,1592870420
1,saint-jean-port-joli,47.22,-70.27,23.34,73,52,4.92,CA,1592870420
2,busselton,-33.65,115.33,14.44,73,51,8.89,AU,1592870420
3,archidona,37.1,-4.39,22.78,48,0,2.05,ES,1592870421
4,harwich,51.94,1.28,16.67,76,0,3.8,GB,1592870421
5,punta arenas,-53.15,-70.92,5.0,86,97,8.2,CL,1592870421
6,souillac,-20.52,57.52,22.0,78,75,1.5,MU,1592870421
7,morant bay,17.88,-76.41,32.0,59,20,8.7,JM,1592870421
8,lebu,-37.62,-73.65,9.57,77,48,3.35,CL,1592870421
9,avarua,-21.21,-159.78,25.0,69,22,6.2,CK,1592870421
10,omboue,-1.57,9.26,22.07,90,96,2.92,GA,1592870421
11,gazanjyk,39.24,55.52,23.87,57,0,7.36,TM,1592870421
12,ushuaia,-54.8,-68.3,1.0,86,20,1.0,AR,1592870380
13,tura,25.52,90.22,23.75,94,16,2.45,IN,1592870422
14,turukhansk,65.82,87.98,14.0,77,82,2.89,RU,1592869906
15,albany,42.6,-73.97,31.67,54,35,1.36,US,1592870422
16,sijunjung,-0.69,100.95,22.49,92,98,0.76,ID,1592870422
17,noumea,-22.28,166.46,25.0,53,28,1.5,NC,1592870195
18,pevek,69.7,170.31,-0.19,97,37,7.72,RU,1592870422
19,rikitea,-23.12,-134.97,20.83,60,56,7.41,PF,1592870422
20,ribeira grande,38.52,-28.7,19.56,91,34,7.42,PT,1592870422
21,chokurdakh,70.63,147.92,17.44,33,13,5.45,RU,1592870422
22,hermanus,-34.42,19.23,12.78,85,0,2.24,ZA,1592870423
23,vaini,-21.2,-175.2,26.0,83,40,4.6,TO,1592870423
24,windhoek,-22.56,17.08,12.0,30,0,1.5,NA,1592870396
25,aklavik,68.22,-135.01,20.0,42,90,2.6,CA,1592870423
26,klyuchi,52.27,79.17,14.56,71,0,3.22,RU,1592869913
27,hasaki,35.73,140.83,21.11,94,75,3.1,JP,1592870423
28,mayumba,-3.43,10.66,21.6,89,81,1.49,GA,1592870423
29,kingaroy,-26.53,151.83,14.44,66,0,2.1,AU,1592870423
30,codrington,-38.27,141.97,14.58,85,93,7.32,AU,1592870423
31,vilyuysk,63.76,121.62,21.69,50,64,1.8,RU,1592869920
32,aldama,22.92,-98.07,30.0,62,24,1.34,MX,1592870425
33,maniitsoq,65.42,-52.9,5.66,75,4,7.55,GL,1592870425
34,baherden,38.44,57.43,27.36,27,0,8.27,TM,1592870425
35,norman wells,65.28,-126.83,14.0,87,75,3.6,CA,1592869935
36,lompoc,34.64,-120.46,19.44,68,7,7.2,US,1592870364
37,arandas,20.7,-102.35,22.63,55,65,1.88,MX,1592870425
38,arraial do cabo,-22.97,-42.03,20.0,94,0,2.44,BR,1592870425
39,kharp,66.8,65.81,5.65,66,45,1.56,RU,1592870425
40,ambon,-3.7,128.18,26.0,88,40,2.1,ID,1592870425
41,bluff,-46.6,168.33,3.89,83,49,1.34,NZ,1592870426
42,kabalo,-6.05,26.92,21.9,41,28,1.48,CD,1592870426
43,butaritari,3.07,172.79,28.2,77,63,7.15,KI,1592870426
44,amberley,39.2,-84.43,28.33,58,20,4.6,US,1592870426
45,monte patria,-30.69,-70.95,15.11,61,100,1.13,CL,1592870426
46,mataura,-46.19,168.86,3.89,83,28,1.34,NZ,1592870427
47,najran,17.49,44.13,28.0,20,83,2.1,SA,1592869909
48,chara,56.91,118.26,16.72,58,88,0.77,RU,1592870428
49,grand-lahou,5.14,-5.02,24.78,89,94,4.62,CI,1592869917
50,brigantine,39.41,-74.36,27.0,57,1,4.1,US,1592870294
51,qaanaaq,77.48,-69.36,3.34,88,98,1.73,GL,1592870428
52,hilo,19.73,-155.09,27.0,61,90,4.6,US,1592870429
53,chuy,-33.7,-53.46,15.23,94,93,4.41,UY,1592870195
54,jalu,29.03,21.55,20.2,68,0,3.69,LY,1592869890
55,east london,-33.02,27.91,17.46,39,0,2.56,ZA,1592870429
56,ponta do sol,32.67,-17.1,21.0,68,20,5.7,PT,1592870429
57,bengkulu,-3.8,102.27,24.22,91,100,3.01,ID,1592870429
58,baghramyan,40.19,44.37,21.0,46,4,4.6,AM,1592870429
59,hobart,-42.88,147.33,12.78,93,75,7.7,AU,1592870223
60,katobu,-4.94,122.53,26.01,76,9,3.37,ID,1592870429
61,nanortalik,60.14,-45.24,6.82,76,0,3.3,GL,1592869908
62,vao,-22.67,167.48,22.15,73,23,5.24,NC,1592870429
63,emod,47.93,20.82,18.81,82,72,7.44,HU,1592870430
64,alyangula,-13.85,136.42,24.0,60,2,3.6,AU,1592870430
65,margate,51.38,1.39,14.44,76,0,1.34,GB,1592870192
66,lavrentiya,65.58,-171.0,7.2,64,100,7.55,RU,1592870430
67,waipawa,-41.41,175.52,13.33,100,90,2.1,NZ,1592870144
68,maroon town,18.34,-77.8,31.0,70,20,8.2,JM,1592870430
69,ampanihy,-24.7,44.75,16.47,98,14,2.59,MG,1592870430
70,mitsamiouli,-11.38,43.28,26.11,75,57,2.8,KM,1592870430
71,inirida,3.87,-67.92,23.94,96,99,0.91,CO,1592870431
72,blagoyevo,63.37,47.92,6.27,78,87,2.74,RU,1592869900
73,saint george,37.1,-113.58,40.0,9,1,5.1,US,1592870411
74,hengshui,37.73,115.7,24.45,62,98,2.29,CN,1592870431
75,inhambane,-23.86,35.38,19.41,84,56,3.45,MZ,1592869885
76,cape town,-33.93,18.42,12.22,100,90,2.6,ZA,1592870431
77,cabadiangan,9.75,122.47,28.53,71,95,1.05,PH,1592870432
78,wucheng,29.6,118.17,26.51,86,100,1.14,CN,1592870432
79,bethel,41.37,-73.41,27.78,72,25,2.66,US,1592870432
80,salumbar,24.13,74.05,28.9,69,97,5.11,IN,1592870432
81,sambava,-14.27,50.17,21.11,79,47,4.4,MG,1592870432
82,bethanien,-26.5,17.16,10.87,40,0,0.84,NA,1592870432
83,balaghat,21.8,80.18,25.59,84,99,1.8,IN,1592870433
84,geraldton,-28.77,114.6,17.0,72,40,5.7,AU,1592870433
85,bredasdorp,-34.53,20.04,7.0,93,0,2.22,ZA,1592870433
86,carnarvon,-24.87,113.63,19.0,82,90,3.6,AU,1592870433
87,atuona,-9.8,-139.03,26.57,79,43,6.14,PF,1592870433
88,riyadh,24.69,46.72,28.0,18,51,3.1,SA,1592869903
89,pringsewu,-5.36,104.97,23.02,92,91,0.53,ID,1592870433
90,rio gallegos,-51.62,-69.22,6.0,93,90,4.1,AR,1592870433
91,talnakh,69.49,88.4,13.0,71,81,6.0,RU,1592870433
92,bandarbeyla,9.49,50.81,27.38,67,35,10.17,SO,1592869895
93,hailar,49.2,119.7,14.7,72,100,7.33,CN,1592870434
94,tiarei,-17.53,-149.33,28.0,58,40,2.6,PF,1592869905
95,lagos,6.58,3.75,23.0,94,20,1.0,NG,1592870161
96,faanui,-16.48,-151.75,25.15,75,11,9.0,PF,1592870434
97,tuatapere,-46.13,167.68,3.89,83,65,1.34,NZ,1592870005
98,broome,42.25,-75.83,26.67,57,1,1.5,US,1592870434
99,shache,38.42,77.24,22.53,19,0,1.2,CN,1592870434
100,beyneu,45.32,55.2,24.23,20,9,4.01,KZ,1592870434
101,hami,42.8,93.45,21.85,20,0,5.68,CN,1592869910
102,gaya,24.78,85.0,28.49,76,5,3.53,IN,1592870288
103,pangani,-5.43,38.97,23.29,87,91,4.47,TZ,1592870434
104,kapit,2.02,112.93,24.17,94,100,0.35,MY,1592870434
105,new norfolk,-42.78,147.06,12.78,92,100,0.89,AU,1592870435
106,georgetown,5.41,100.34,25.0,100,20,1.81,MY,1592870414
107,saskylakh,71.92,114.08,26.79,36,7,2.49,RU,1592870435
108,mar del plata,-38.0,-57.56,11.67,93,83,1.0,AR,1592870400
109,te anau,-45.42,167.72,8.5,76,49,0.69,NZ,1592870435
110,kruisfontein,-34.0,24.73,10.75,68,0,1.89,ZA,1592870435
111,jamestown,42.1,-79.24,20.0,93,20,2.6,US,1592870183
112,qaqortoq,60.72,-46.03,16.0,48,10,6.2,GL,1592869893
113,ilulissat,69.22,-51.1,9.0,57,95,2.1,GL,1592870293
114,lasa,46.62,10.7,14.44,76,5,3.1,IT,1592869889
115,talcahuano,-36.72,-73.12,9.0,100,59,1.5,CL,1592870435
116,miles city,46.41,-105.84,26.0,31,1,5.7,US,1592870435
117,miranda,3.25,-76.23,27.0,61,40,4.1,CO,1592870435
118,vera cruz,-12.63,-41.03,18.4,93,44,1.82,BR,1592870435
119,kalmunai,7.42,81.82,27.84,76,100,1.26,LK,1592870436
120,cidreira,-30.18,-50.21,17.9,92,5,6.07,BR,1592870436
121,iqaluit,63.75,-68.51,12.0,54,20,6.2,CA,1592870436
122,ucluelet,48.93,-125.55,15.0,67,90,1.5,CA,1592870436
123,luderitz,-26.65,15.16,10.0,93,0,1.5,NA,1592870436
124,upernavik,72.79,-56.15,4.32,72,48,4.16,GL,1592869958
125,guerrero negro,27.98,-114.06,21.25,67,17,8.49,MX,1592870436
126,komsomolskiy,40.43,71.72,29.0,23,90,3.1,UZ,1592870436
127,camacha,33.08,-16.33,21.0,68,75,6.2,PT,1592870436
128,khatanga,71.97,102.5,28.14,27,84,5.8,RU,1592870437
129,bonthe,7.53,-12.51,25.45,87,98,2.77,SL,1592869911
130,nahrin,36.06,69.13,25.4,17,81,1.27,AF,1592870437
131,mahajanga,-15.72,46.32,21.0,73,0,1.5,MG,1592870437
132,tuktoyaktuk,69.45,-133.04,17.0,51,75,4.1,CA,1592870437
133,silver city,32.77,-108.28,34.0,9,1,5.7,US,1592870437
134,barrow,71.29,-156.79,2.0,74,90,6.2,US,1592870437
135,mount gambier,-37.83,140.77,12.0,100,90,4.6,AU,1592870437
136,tasiilaq,65.61,-37.64,11.0,72,4,3.1,GL,1592870437
137,garowe,8.41,48.48,28.68,44,73,8.98,SO,1592870437
138,rybinsk,58.04,38.84,10.22,87,0,0.92,RU,1592870437
139,bambanglipuro,-7.95,110.28,25.46,82,65,4.29,ID,1592870437
140,tailai,46.38,123.4,16.21,94,100,7.1,CN,1592870438
141,pisco,-13.7,-76.22,18.0,77,90,2.6,PE,1592870267
142,coquimbo,-29.95,-71.34,13.0,87,100,1.0,CL,1592870197
143,mount darwin,-16.77,31.58,11.14,59,0,1.69,ZW,1592870438
144,yar-sale,66.83,70.83,5.12,69,13,2.13,RU,1592870438
145,juneau,58.3,-134.42,15.0,71,90,1.5,US,1592869913
146,bronte,37.79,14.83,21.11,68,63,3.1,IT,1592870154
147,puerto rondon,6.28,-71.1,22.98,95,100,2.05,CO,1592870438
148,paeroa,-37.37,175.67,16.11,68,16,5.36,NZ,1592870439
149,mayo,38.89,-76.51,25.0,78,75,2.6,US,1592870439
150,dingle,11.0,122.67,28.7,75,97,1.31,PH,1592870167
151,fleet,51.28,-0.83,14.0,82,0,4.6,GB,1592870439
152,puerto ayora,-0.74,-90.35,21.67,92,40,3.13,EC,1592870439
153,port lavaca,28.61,-96.63,31.0,79,40,8.7,US,1592870439
154,san antonio,29.42,-98.49,36.0,49,20,8.7,US,1592870400
155,tiksi,71.69,128.87,8.79,66,9,1.45,RU,1592870439
156,port alfred,-33.59,26.89,15.0,58,0,2.24,ZA,1592870439
157,saint-philippe,-21.36,55.77,19.0,77,37,1.5,RE,1592870162
158,quatre cocos,-20.21,57.76,22.0,78,75,1.5,MU,1592870439
159,kasongo,-4.45,26.67,24.63,41,72,0.24,CD,1592870440
160,tatawin,32.93,10.45,24.0,41,0,1.5,TN,1592870440
161,kampot,10.62,104.18,26.0,94,20,1.0,KH,1592870440
162,dillon,34.42,-79.37,30.56,62,1,2.1,US,1592870440
163,dustlik,40.52,68.04,23.72,31,53,2.39,UZ,1592870440
164,kropotkin,45.44,40.58,19.33,87,95,1.67,RU,1592870440
165,nikolskoye,59.7,30.79,12.0,76,0,0.39,RU,1592870440
166,bubaque,11.28,-15.83,27.69,83,38,5.94,GW,1592869889
167,lodwar,3.12,35.6,27.74,55,0,2.76,KE,1592870414
168,tanout,14.97,8.89,31.87,15,3,3.14,NE,1592870266
169,cabo san lucas,22.89,-109.91,30.0,51,5,3.1,MX,1592870440
170,henties bay,-22.12,14.28,16.0,56,0,1.17,NA,1592870440
171,surgut,61.25,73.42,9.0,100,20,2.0,RU,1592870441
172,gilgit,35.92,74.31,24.75,30,0,1.83,PK,1592870389
173,sao borja,-28.66,-56.0,22.08,70,56,5.05,BR,1592870441
174,araouane,18.9,-3.53,35.77,11,1,2.53,ML,1592870441
175,pangody,65.85,74.49,7.03,75,96,3.09,RU,1592870441
176,maarianhamina,60.1,19.93,9.0,100,95,1.5,AX,1592870441
177,havre-saint-pierre,50.23,-63.6,15.0,87,1,2.1,CA,1592870219
178,castro,-24.79,-50.01,14.48,87,28,1.88,BR,1592870441
179,udayagiri,20.13,84.38,21.77,92,86,0.57,IN,1592870441
180,kahului,20.89,-156.47,33.0,36,40,10.3,US,1592869897
181,yulara,-25.24,130.99,7.0,70,0,4.1,AU,1592870441
182,yellowknife,62.46,-114.35,23.33,28,40,7.7,CA,1592870441
183,gouyave,12.16,-61.73,29.0,79,20,6.2,GD,1592870441
184,vardo,70.37,31.11,4.0,80,75,2.6,NO,1592870205
185,buala,-8.14,159.59,29.1,74,91,3.3,SB,1592870441
186,esperance,-33.87,121.9,13.0,47,50,7.2,AU,1592870442
187,general roca,-39.03,-67.58,10.0,61,97,1.5,AR,1592869908
188,sitka,57.05,-135.33,14.0,62,90,3.1,US,1592870436
189,haines junction,60.75,-137.51,15.63,33,1,3.94,CA,1592870363
190,adrar,20.5,-10.07,37.44,9,0,3.99,MR,1592869896
191,provideniya,64.38,-173.3,8.0,75,90,2.0,RU,1592870442
192,apatou,5.16,-54.35,23.58,97,84,1.19,GF,1592870442
193,vestmannaeyjar,63.44,-20.27,9.6,81,22,6.48,IS,1592869891
194,port elizabeth,-33.92,25.57,10.0,81,0,2.1,ZA,1592870013
195,harqalah,36.03,10.51,25.0,53,0,3.1,TN,1592870442
196,colac,-38.33,143.58,10.56,99,62,1.34,AU,1592870443
197,tromso,69.65,18.96,10.0,71,83,1.0,NO,1592870443
198,lorengau,-2.02,147.27,29.88,69,96,2.54,PG,1592870444
199,demba,-5.51,22.27,18.78,50,0,0.57,CD,1592870444
200,sompeta,18.93,84.6,28.05,72,40,1.39,IN,1592870444
201,san pedro,14.35,121.02,32.22,79,75,1.0,PH,1592870444
202,kijang,35.24,129.21,23.0,73,85,1.0,KR,1592870444
203,nabire,-3.37,135.48,26.17,83,99,0.65,ID,1592869909
204,macroom,51.9,-8.95,14.44,100,90,7.2,IE,1592870444
205,sioux lookout,50.1,-91.92,19.0,59,75,2.1,CA,1592870444
206,vilhena,-12.74,-60.15,21.69,64,43,1.43,BR,1592870444
207,yatou,37.15,122.38,21.97,78,100,1.88,CN,1592870445
208,yibin,28.77,104.62,22.98,90,100,0.71,CN,1592870445
209,kapaa,22.08,-159.32,28.33,65,40,5.1,US,1592870445
210,port-cartier,50.03,-66.87,13.33,93,90,2.6,CA,1592870445
211,nouadhibou,20.93,-17.03,24.0,69,18,7.2,MR,1592869904
212,ostrovnoy,68.05,39.51,4.03,80,94,8.04,RU,1592870161
213,bayir,37.27,28.22,21.0,88,40,1.0,TR,1592870445
214,dikson,73.51,80.55,8.91,76,94,7.06,RU,1592870445
215,salalah,17.02,54.09,29.0,83,75,3.1,OM,1592870445
216,norsup,-16.07,167.38,28.0,83,75,1.5,VU,1592870445
217,lang son,21.83,106.73,27.96,80,77,2.66,VN,1592870445
218,nantucket,41.28,-70.1,21.0,77,1,3.1,US,1592870010
219,athabasca,54.72,-113.29,21.94,63,84,4.13,CA,1592870248
220,beringovskiy,63.05,179.32,11.18,57,81,6.09,RU,1592869890
221,itapetinga,-15.25,-40.25,18.58,94,90,0.48,BR,1592870446
222,bilma,18.69,12.92,30.37,13,0,2.3,NE,1592870446
223,alta floresta,-9.88,-56.09,22.53,63,0,1.55,BR,1592869892
224,huilong,31.81,121.66,24.44,94,100,0.45,CN,1592870446
225,yerbogachen,61.28,108.01,18.24,71,99,3.16,RU,1592870446
226,kodiak,57.79,-152.41,12.0,76,90,5.1,US,1592870446
227,launceston,-41.45,147.17,12.22,93,75,8.2,AU,1592869890
228,kyshtovka,56.55,76.63,10.66,87,70,1.64,RU,1592870446
229,san diego de los banos,22.65,-83.37,27.74,81,45,1.51,CU,1592870446
230,karasburg,-28.02,18.75,10.99,41,0,2.0,NA,1592870446
231,buritis,-15.62,-46.42,18.4,55,19,0.74,BR,1592870261
232,leningradskiy,69.38,178.42,1.51,86,100,7.45,RU,1592870447
233,nsanje,-16.92,35.26,15.62,92,0,0.54,MW,1592870447
234,vanimo,-2.67,141.3,29.26,66,4,2.68,PG,1592870448
235,thompson,55.74,-97.86,17.0,88,75,1.0,CA,1592870448
236,yuancheng,36.65,107.79,21.06,47,83,0.71,CN,1592870448
237,wenling,28.37,121.36,26.11,98,98,0.76,CN,1592870448
238,sorsk,54.0,90.25,11.05,87,67,1.46,RU,1592870448
239,mahebourg,-20.41,57.7,22.0,78,75,1.5,MU,1592870448
240,severo-kurilsk,50.68,156.12,10.29,77,92,4.98,RU,1592870448
241,bady bassitt,-20.92,-49.45,21.0,40,90,1.71,BR,1592870448
242,luanda,-8.84,13.23,22.0,88,75,3.1,AO,1592870177
243,narsaq,60.92,-46.05,16.0,48,3,6.2,GL,1592870192
244,rumonge,-3.97,29.44,22.73,67,97,1.62,BI,1592870449
245,airai,-8.93,125.41,16.34,85,29,1.93,TL,1592870449
246,ancud,-41.87,-73.82,6.67,87,40,3.1,CL,1592870449
247,acari,-15.43,-74.62,17.34,63,38,1.46,PE,1592870449
248,zhigansk,66.77,123.37,22.56,36,6,1.23,RU,1592870196
249,muros,42.78,-9.06,20.56,77,0,0.45,ES,1592870449
250,buchanan,5.88,-10.05,26.0,94,75,3.06,LR,1592870449
251,tiznit,29.58,-9.5,19.56,78,12,0.86,MA,1592870449
252,innisfail,-17.53,146.03,22.03,68,0,2.87,AU,1592870449
253,port moresby,-9.44,147.18,28.0,78,40,3.1,PG,1592870449
254,katol,21.27,78.58,24.0,100,75,1.5,IN,1592870449
255,sunnyside,46.32,-120.01,31.11,23,36,1.5,US,1592870450
256,hualmay,-11.1,-77.61,16.82,84,61,2.95,PE,1592869896
257,segezha,63.74,34.32,13.07,86,100,4.24,RU,1592870450
258,berlevag,70.86,29.09,3.0,86,75,4.6,NO,1592870450
259,victoria,22.29,114.16,31.11,74,97,4.47,HK,1592870437
260,faya,18.39,42.45,23.0,16,1,4.6,SA,1592869918
261,vega de alatorre,20.03,-96.63,28.59,78,94,4.97,MX,1592870450
262,impfondo,1.64,18.07,22.38,91,39,0.28,CG,1592870450
263,batemans bay,-35.72,150.18,12.22,80,52,3.13,AU,1592870450
264,nioro,13.35,-15.75,27.77,65,5,5.32,GM,1592870450
265,cockburn town,21.46,-71.14,28.36,82,69,8.53,TC,1592870450
266,north bend,43.41,-124.22,28.89,64,1,9.8,US,1592869905
267,muskogee,35.58,-95.33,31.11,55,1,3.6,US,1592870451
268,dongsheng,39.82,109.98,20.45,45,100,3.38,CN,1592870451
269,sao filipe,14.9,-24.5,25.52,72,0,6.05,CV,1592870451
270,touros,-5.2,-35.46,24.0,83,20,3.1,BR,1592870451
271,paita,-5.09,-81.11,18.99,82,9,6.81,PE,1592870451
272,urumqi,43.8,87.6,17.0,39,60,1.0,CN,1592870451
273,honiara,-9.43,159.95,28.0,78,40,2.1,SB,1592870438
274,gamba,-2.65,10.0,21.34,91,90,1.66,GA,1592870451
275,coahuayana,18.73,-103.68,27.0,74,75,5.1,MX,1592870451
276,dudinka,69.41,86.18,13.0,71,79,6.0,RU,1592870451
277,isangel,-19.55,169.27,27.0,74,75,2.6,VU,1592869981
278,san quintin,30.48,-115.95,20.43,71,18,7.47,MX,1592870452
279,katsuura,35.13,140.3,25.0,88,75,1.5,JP,1592870452
280,elat,29.56,34.95,30.0,37,0,7.2,IL,1592870402
281,stratonion,40.51,23.82,18.33,82,53,1.34,GR,1592870452
282,torbay,47.67,-52.73,13.89,93,90,5.7,CA,1592870452
283,daragutan,17.0,122.03,27.25,83,92,0.71,PH,1592870452
284,hambantota,6.12,81.12,27.74,74,99,8.23,LK,1592870263
285,hithadhoo,-0.6,73.08,29.07,71,23,4.4,MV,1592870453
286,kalabo,-14.97,22.68,10.31,59,0,1.94,ZM,1592870453
287,westport,41.14,-73.36,27.22,61,1,4.6,US,1592870454
288,ailigandi,9.23,-78.02,27.82,84,97,2.81,PA,1592870454
289,aleysk,52.49,82.78,12.1,84,1,3.56,RU,1592870454
290,homer,59.64,-151.55,15.0,51,1,4.1,US,1592870454
291,saldanha,-33.01,17.94,8.0,93,19,1.0,ZA,1592870172
292,chapais,49.78,-74.85,23.0,69,90,2.6,CA,1592870454
293,marystown,47.17,-55.15,13.13,97,98,3.32,CA,1592869909
294,meulaboh,4.14,96.13,23.32,93,100,3.82,ID,1592870455
295,calmar,53.27,-113.82,24.0,47,75,3.1,CA,1592870455
296,paamiut,61.99,-49.67,4.31,86,2,7.57,GL,1592870162
297,ugoofaaru,5.67,73.0,28.47,79,100,4.94,MV,1592870455
298,tilichiki,60.47,166.1,19.99,59,54,0.85,RU,1592869906
299,holme,56.11,10.17,12.0,87,5,4.1,DK,1592870455
300,kawalu,-7.38,108.21,22.9,92,100,0.54,ID,1592870455
301,haimen,23.19,116.61,30.0,79,20,2.0,CN,1592870455
302,parabel,58.7,81.48,12.71,98,100,2.24,RU,1592870455
303,mweka,-4.85,21.57,19.54,58,1,0.53,CD,1592870456
304,katangli,51.71,143.23,5.7,94,100,3.78,RU,1592870456
305,springbok,-29.66,17.89,9.88,46,0,1.65,ZA,1592869915
306,peoria,40.77,-89.77,24.0,83,90,5.1,US,1592870400
307,zaragoza,41.66,-0.88,21.0,60,9,3.1,ES,1592870456
308,mathathane,-22.27,28.75,10.37,67,0,2.99,BW,1592870456
309,bouna,9.27,-3.0,23.69,87,59,3.81,CI,1592870456
310,ranot,7.78,100.32,27.14,79,100,1.61,TH,1592870457
311,deputatskiy,69.3,139.9,21.45,52,29,1.69,RU,1592870457
312,palatka,29.65,-81.64,32.22,51,1,3.1,US,1592870258
313,siilinjarvi,63.08,27.67,16.0,59,5,2.1,FI,1592870457
314,ixtapa,20.7,-105.2,31.0,66,5,6.2,MX,1592870457
315,puerto colombia,10.99,-74.95,30.0,74,79,5.1,CO,1592870457
316,doha,25.29,51.53,32.0,40,5,4.1,QA,1592870456
317,biltine,14.53,20.92,29.1,27,14,3.12,TD,1592870457
318,laguna,38.42,-121.42,38.33,23,1,3.1,US,1592870457
319,carrigaline,51.81,-8.4,14.44,100,90,7.2,IE,1592870457
320,chantada,42.61,-7.77,17.78,89,12,0.45,ES,1592870457
321,celarevo,45.27,19.53,20.56,85,96,2.24,RS,1592870457
322,butterworth,5.4,100.36,25.0,100,20,1.73,MY,1592870458
323,nome,64.5,-165.41,14.0,71,1,8.7,US,1592870213
324,chilliwack,49.17,-121.94,25.0,52,15,0.89,CA,1592870373
325,floro,61.6,5.03,15.0,72,71,7.2,NO,1592870458
326,houma,29.6,-90.72,27.0,83,90,2.1,US,1592869897
327,pangai,-19.8,-174.35,27.0,88,40,2.6,TO,1592870458
328,pedernales,18.04,-71.74,28.93,64,3,3.92,DO,1592869911
329,necochea,-38.55,-58.74,8.89,92,55,3.13,AR,1592869902
330,port hedland,-20.32,118.57,15.0,62,0,3.1,AU,1592869914
331,yaan,7.38,8.57,21.93,99,100,1.89,NG,1592869893
332,kashi,39.45,75.98,24.0,15,20,6.0,CN,1592870458
333,chipinge,-20.19,32.62,9.15,73,0,1.55,ZW,1592870458
334,vila franca do campo,37.72,-25.43,19.0,93,40,4.1,PT,1592870011
335,los llanos de aridane,28.66,-17.92,22.0,68,90,5.7,ES,1592869980
336,sorland,67.67,12.69,12.24,97,16,5.32,NO,1592870459
337,trelew,-43.25,-65.31,9.25,58,41,4.99,AR,1592870337
338,praia da vitoria,38.73,-27.07,21.0,83,40,4.97,PT,1592870459
339,kirensk,57.79,108.11,21.09,55,33,2.11,RU,1592870459
340,antalaha,-14.9,50.28,21.25,82,50,2.65,MG,1592870205
341,almeirim,-1.52,-52.58,24.49,88,51,1.17,BR,1592870459
342,ngunguru,-35.62,174.5,17.22,82,77,3.58,NZ,1592870459
343,suzun,53.78,82.31,13.68,85,80,1.87,RU,1592870459
344,taganak,6.08,118.3,26.0,94,20,1.0,PH,1592870459
345,pamplona,42.82,-1.64,17.0,82,41,1.5,ES,1592870460
346,port dover,42.78,-80.2,25.0,86,98,1.94,CA,1592870460
347,sorong,-0.88,131.25,26.7,86,100,4.61,ID,1592869893
348,sinegorskiy,48.01,40.84,18.23,89,100,1.12,RU,1592870460
349,varhaug,58.61,5.65,13.0,76,85,3.1,NO,1592870460
350,egvekinot,66.32,-179.17,8.39,54,100,2.71,RU,1592870214
351,ossora,59.24,163.07,20.81,47,17,1.21,RU,1592870460
352,vanavara,60.34,102.28,21.51,56,50,1.12,RU,1592870460
353,maragogi,-9.01,-35.22,24.42,84,4,4.36,BR,1592870460
354,banda aceh,5.56,95.32,25.09,85,100,6.75,ID,1592869919
355,pyshma,56.95,63.25,6.37,87,85,2.07,RU,1592870461
356,sakakah,29.97,40.21,29.0,19,0,6.7,SA,1592870024
357,fortuna,40.6,-124.16,22.78,72,1,6.2,US,1592870461
358,wilmington,34.23,-77.94,31.0,55,1,6.7,US,1592870202
359,cherskiy,68.75,161.3,12.66,40,20,7.35,RU,1592870191
360,rancho veloz,22.88,-80.39,31.0,70,75,6.7,CU,1592870461
361,padang,-0.95,100.35,24.47,85,100,1.38,ID,1592870461
362,conceicao do araguaia,-8.26,-49.26,23.84,70,10,0.94,BR,1592870461
363,namatanai,-3.67,152.43,29.83,65,74,1.33,PG,1592869903
364,sukumo,32.93,132.73,26.97,57,0,1.06,JP,1592870462
365,fallon,39.47,-118.78,35.0,12,20,2.6,US,1592870462
366,coihaique,-45.58,-72.07,3.0,86,90,1.5,CL,1592869889
367,katherine,-14.47,132.27,20.0,32,0,5.1,AU,1592870462
368,bambous virieux,-20.34,57.76,22.0,78,75,1.5,MU,1592870462
369,rawson,-43.3,-65.1,9.79,60,44,5.45,AR,1592870343
370,pelym,61.01,62.0,8.18,67,92,0.95,RU,1592869899
371,okato,-39.2,173.88,13.33,77,0,3.13,NZ,1592870462
372,atlantic city,39.36,-74.42,27.0,57,1,4.1,US,1592870462
373,ovalle,-30.6,-71.2,15.24,62,100,1.23,CL,1592870444
374,celica,-4.12,-79.95,16.81,89,66,2.14,EC,1592870462
375,pondicherry,11.93,79.83,28.38,66,100,5.69,IN,1592870463
376,verkhoyansk,67.54,133.38,28.04,40,0,3.04,RU,1592870463
377,marawi,8.0,124.29,26.67,81,82,1.34,PH,1592869894
378,santa cruz,-17.8,-63.17,22.0,88,40,6.7,BO,1592869690
379,dungarpur,23.83,73.72,27.51,74,97,5.8,IN,1592870464
380,novobirilyussy,56.95,90.67,15.71,75,1,0.46,RU,1592870464
381,antofagasta,-23.65,-70.4,15.0,77,90,5.1,CL,1592870388
382,pyay,18.82,95.22,26.63,86,56,1.7,MM,1592870464
383,priargunsk,50.37,119.1,15.96,67,100,5.84,RU,1592870464
384,dakar,14.69,-17.44,26.0,83,40,3.1,SN,1592869743
385,san,13.3,-4.9,30.14,51,91,8.5,ML,1592869925
386,zeya,53.75,127.27,18.54,43,0,2.21,RU,1592870464
387,san vicente,-26.62,-54.13,17.29,87,0,1.56,AR,1592870406
388,cuyo,10.85,121.01,29.55,68,96,1.38,PH,1592870465
389,yinchuan,38.47,106.27,23.42,42,52,3.34,CN,1592870465
390,touho,-20.78,165.23,23.21,73,78,4.55,NC,1592870466
391,sens,48.17,3.33,12.22,83,0,1.73,FR,1592870466
392,thinadhoo,0.53,72.93,29.01,73,75,5.74,MV,1592870218
393,teya,60.38,92.63,18.63,44,48,0.37,RU,1592870466
394,aripuana,-9.17,-60.63,24.57,64,56,0.74,BR,1592869915
395,yuanping,38.72,112.76,24.01,55,96,0.17,CN,1592870466
396,pilar,-9.6,-35.96,23.0,94,20,1.5,BR,1592870466
397,buzdyak,54.58,54.55,6.3,89,9,1.74,RU,1592870467
398,hidalgotitlan,17.78,-94.63,31.0,74,5,5.1,MX,1592870468
399,tual,-5.67,132.75,26.76,82,59,9.25,ID,1592870468
400,sola,-13.88,167.55,26.86,80,99,3.65,VU,1592870468
401,saint-pierre,-21.34,55.48,19.0,77,19,1.5,RE,1592870405
402,manggar,-2.88,108.27,26.92,81,100,4.94,ID,1592869906
403,sibi,29.54,67.88,34.24,27,0,2.34,PK,1592870468
404,goderich,43.75,-81.72,26.67,63,80,1.27,CA,1592870464
405,san patricio,19.22,-104.7,31.0,70,40,4.1,MX,1592870191
406,poum,-20.23,164.02,23.43,75,90,4.06,NC,1592870468
407,nemuro,43.32,145.57,15.0,93,75,1.5,JP,1592870469
408,clovis,36.83,-119.7,38.33,19,20,4.1,US,1592870462
409,awbari,26.59,12.78,23.37,21,0,0.97,LY,1592870469
410,diego de almagro,-26.37,-70.05,9.07,81,0,0.36,CL,1592870469
411,harper,4.38,-7.72,25.32,84,100,5.32,LR,1592870038
412,holoby,51.09,25.01,18.89,98,99,1.34,UA,1592870469
413,staraya toropa,56.28,31.67,12.19,89,13,1.63,RU,1592870469
414,rosetta,31.4,30.42,22.0,83,0,2.1,EG,1592870470
415,urubicha,-15.38,-62.95,25.37,48,90,1.49,BO,1592870470
416,salinopolis,-0.61,-47.36,26.19,85,64,4.32,BR,1592870470
417,ahipara,-35.17,173.17,17.24,76,7,5.43,NZ,1592870470
418,danshui,22.8,114.47,31.11,100,97,2.17,CN,1592870470
419,puerto escondido,15.85,-97.07,32.0,66,40,2.17,MX,1592870470
420,kibaya,-5.3,36.57,12.64,97,2,2.02,TZ,1592870470
421,jumla,29.27,82.18,16.54,69,94,0.28,NP,1592870048
422,kaoma,-14.78,24.8,10.23,63,0,2.76,ZM,1592870470
423,zhangye,38.93,100.45,22.48,32,0,3.64,CN,1592870470
424,matagami,49.75,-77.63,27.0,51,90,5.1,CA,1592869908
425,loni,28.75,77.28,33.33,74,0,2.6,IN,1592870471
426,bria,6.54,21.99,20.94,91,96,0.82,CF,1592870471
427,cap malheureux,-19.98,57.61,19.44,85,0,1.34,MU,1592870471
428,shevchenkove,49.7,37.17,19.0,82,96,2.0,UA,1592870471
429,inuvik,68.35,-133.72,20.0,42,90,2.6,CA,1592869697
430,the pas,53.83,-101.25,22.0,43,40,1.5,CA,1592870471
431,namibe,-15.2,12.15,20.71,76,0,3.43,AO,1592870471
432,mehamn,71.04,27.85,4.25,79,70,2.27,NO,1592870471
433,saint anthony,45.02,-93.22,23.33,43,90,4.1,US,1592870471
434,itacarambi,-15.1,-44.09,22.71,56,34,2.04,BR,1592870471
435,bukachacha,52.98,116.92,15.67,65,92,1.86,RU,1592870471
436,kupino,54.37,77.3,14.81,86,100,4.62,RU,1592870472
437,lagoa,39.05,-27.98,19.47,91,45,9.46,PT,1592870024
438,kabala,9.58,-11.55,21.67,98,82,1.8,SL,1592870473
439,gladstone,-23.85,151.25,18.0,42,0,2.6,AU,1592870473
440,moche,-8.17,-79.01,17.92,83,41,3.87,PE,1592869915
441,belyy yar,53.6,91.39,12.0,87,75,2.0,RU,1592870272
442,vagur,61.47,-6.81,10.1,83,100,8.99,FO,1592870473
443,rio grande,-32.03,-52.1,16.11,95,99,2.24,BR,1592870365
444,klaksvik,62.23,-6.59,9.0,93,100,5.7,FO,1592870473
445,vila velha,-20.33,-40.29,20.56,94,0,2.1,BR,1592870432
446,lata,40.16,-8.33,18.33,92,0,0.92,PT,1592869905
447,turbat,26.0,63.04,26.77,82,11,0.64,PK,1592870473
448,corrente,-3.74,-43.34,23.27,73,1,1.0,BR,1592870473
449,nador,35.17,-2.93,23.0,78,19,2.1,MA,1592870473
450,saint-francois,46.42,3.91,14.0,71,5,0.67,FR,1592869883
451,caarapo,-22.63,-54.82,19.64,68,0,2.91,BR,1592870475
452,olonets,60.98,32.97,8.21,54,0,0.76,RU,1592870475
453,mackenzie,55.3,-123.17,13.0,76,90,5.7,CA,1592870475
454,recco,44.36,9.14,22.22,73,0,0.5,IT,1592870475
455,panaba,21.28,-88.27,28.67,78,72,3.83,MX,1592870475
456,santiago,-33.46,-70.65,8.0,100,90,2.1,CL,1592870419
457,kranuan,16.71,103.08,25.0,88,20,3.67,TH,1592870308
458,gunnaur,28.25,78.43,31.42,56,54,5.17,IN,1592870475
459,pathein,16.78,94.73,27.05,88,3,0.97,MM,1592870422
460,cairo,30.06,31.25,25.0,57,0,4.1,EG,1592870431
461,wuwei,37.93,102.64,19.44,56,74,1.62,CN,1592870476
462,high level,58.52,-117.14,24.0,27,75,4.6,CA,1592870476
463,carutapera,-1.2,-46.02,24.18,90,52,2.82,BR,1592870476
464,quixeramobim,-5.2,-39.29,23.22,71,33,1.2,BR,1592870475
465,constitucion,-35.33,-72.42,10.53,88,74,2.25,CL,1592870476
466,avanigadda,16.02,80.92,27.83,75,64,3.96,IN,1592870476
467,clyde river,70.47,-68.59,5.0,93,90,4.6,CA,1592870476
468,sidi ali,36.1,0.42,25.63,41,0,4.24,DZ,1592870476
469,orebro,59.27,15.21,13.89,93,99,2.6,SE,1592870476
470,gorey,52.67,-6.29,14.44,94,100,1.34,IE,1592870477
471,snezhnogorsk,69.19,33.25,5.0,80,75,3.0,RU,1592870477
472,lensk,60.73,114.93,20.78,50,12,2.07,RU,1592870477
473,lucapa,-8.42,20.74,15.11,34,0,1.68,AO,1592870477
474,lotofaga,-13.98,-171.86,31.67,75,11,2.24,WS,1592870477
475,halifax,44.65,-63.57,20.0,81,74,1.31,CA,1592869889
476,andenes,69.31,16.12,12.0,81,14,0.5,NO,1592869921
477,santa isabel do rio negro,-0.41,-65.02,23.7,96,71,0.66,BR,1592869887
478,olafsvik,64.89,-23.71,8.95,83,100,4.49,IS,1592870477
479,lilongwe,-13.97,33.79,13.58,74,0,1.9,MW,1592870477
480,kota bahru,6.13,102.24,25.0,94,40,1.0,MY,1592870276
481,lewistown,40.6,-77.57,21.67,100,75,0.75,US,1592870477
482,igarka,67.47,86.58,12.77,66,61,7.32,RU,1592870478
483,buta,2.79,24.73,21.0,91,30,0.17,CD,1592870478
484,mount vernon,40.91,-73.84,29.0,51,20,7.2,US,1592870471
485,plettenberg bay,-34.05,23.37,15.08,47,0,1.39,ZA,1592870048
486,leh,34.17,77.58,12.13,37,0,1.18,IN,1592870478
487,manta,-0.95,-80.73,25.0,78,75,5.1,EC,1592870478
488,piracaia,-23.05,-46.36,22.0,72,23,0.87,BR,1592870469
489,kavieng,-2.57,150.8,29.34,71,56,3.86,PG,1592870478
490,husavik,66.04,-17.34,9.0,81,20,3.1,IS,1592870478
491,linhares,-19.39,-40.07,17.68,92,0,0.5,BR,1592869902
492,auki,-8.77,160.7,30.5,67,61,0.81,SB,1592870478
493,kaeo,-35.1,173.78,17.22,3,53,4.92,NZ,1592870186
494,srednekolymsk,67.45,153.68,19.73,26,0,7.38,RU,1592870478
495,sattenapalle,16.4,80.18,27.23,75,74,3.01,IN,1592870478
496,pacific grove,36.62,-121.92,21.67,68,1,6.2,US,1592870230
497,hamilton,39.18,-84.53,29.44,58,20,4.6,US,1592870347
498,lerwick,60.15,-1.15,13.0,87,98,10.3,GB,1592870480
499,tyumentsevo,53.32,81.5,13.49,84,35,3.05,RU,1592870480
500,korla,41.76,86.15,22.22,82,37,2.68,CN,1592869890
501,moyale,3.52,39.06,19.94,73,40,4.26,KE,1592870480
502,elizabeth city,36.29,-76.25,23.0,88,20,5.1,US,1592870480
503,aksaray,38.37,34.03,18.0,72,16,2.1,TR,1592870480
504,axim,4.87,-2.24,25.0,84,72,4.28,GH,1592870481
505,honningsvag,70.98,25.97,5.61,77,91,3.64,NO,1592870481
506,kangaatsiaq,68.31,-53.46,4.6,78,0,3.29,GL,1592870481
507,kavaratti,10.57,72.64,28.81,74,100,5.86,IN,1592870481
508,salym,60.06,71.48,6.23,85,17,1.48,RU,1592870481
509,half moon bay,37.46,-122.43,27.78,50,5,5.7,US,1592870481
510,west plains,36.73,-91.85,27.0,69,20,3.1,US,1592870481
511,sindor,62.86,51.89,6.77,98,5,2.79,RU,1592870481
512,woodward,36.43,-99.39,31.67,40,1,3.1,US,1592869892
513,huarmey,-10.07,-78.15,17.21,83,25,3.16,PE,1592870481
514,pinega,64.7,43.39,5.37,83,95,2.84,RU,1592870481
515,snasa,64.25,12.38,15.27,78,100,0.72,NO,1592870481
516,tezu,27.92,96.17,24.92,85,91,0.81,IN,1592870481
517,mogadishu,2.04,45.34,26.0,84,52,7.68,SO,1592870192
518,tairua,-37.02,175.85,16.11,75,46,4.47,NZ,1592869896
519,hofn,64.25,-15.21,8.08,84,92,1.79,IS,1592870482
520,praya,14.92,-23.51,26.0,74,0,7.2,CV,1592870443
521,vicosa,-20.75,-42.88,16.67,95,25,0.56,BR,1592870482
522,jega,12.22,4.38,30.62,55,91,5.87,NG,1592870482
523,velsk,61.07,42.1,11.03,67,85,3.14,RU,1592870482
524,xique-xique,-10.82,-42.73,24.87,62,10,6.07,BR,1592870482
525,zyryanka,65.75,150.85,27.02,34,29,7.66,RU,1592870482
526,naze,28.37,129.48,26.0,83,40,9.3,JP,1592870482
527,simbahan,6.3,120.58,28.26,75,54,2.01,PH,1592870483
528,yeppoon,-23.13,150.73,17.0,42,0,0.5,AU,1592869916
529,caceres,39.52,-6.37,26.11,39,0,0.97,ES,1592870483
530,black diamond,47.31,-122.0,26.11,51,0,1.34,US,1592870465
531,gap,44.67,6.0,16.11,80,0,1.17,FR,1592870483
532,waitati,-45.75,170.57,7.22,76,10,4.47,NZ,1592870483
533,cabedelo,-6.98,-34.83,24.0,88,12,2.6,BR,1592870483
534,khomutovka,51.92,34.56,16.05,96,97,3.76,RU,1592870483
535,natal,-5.79,-35.21,24.0,83,87,4.1,BR,1592870286
536,longyearbyen,78.22,15.64,7.0,75,78,0.69,SJ,1592870484
537,mocuba,-16.84,36.99,17.95,93,85,1.65,MZ,1592869889
538,umm kaddadah,13.6,26.69,32.31,24,32,3.17,SD,1592870484
539,roberval,48.52,-72.23,23.0,73,75,4.6,CA,1592870469
540,tamandare,-8.76,-35.1,24.92,81,16,4.45,BR,1592870254
541,marica,-22.92,-42.82,25.0,57,40,4.1,BR,1592870484
542,kuryk,43.2,51.65,26.26,38,2,4.69,KZ,1592870484
543,cesis,57.31,25.27,16.11,80,2,1.98,LV,1592870484
544,channel-port aux basques,47.57,-59.14,13.36,96,91,3.6,CA,1592870485
545,palmer,42.16,-72.33,29.0,54,40,4.1,US,1592870421
546,robertsport,6.75,-11.37,25.61,86,96,4.94,LR,1592870485
547,alofi,-19.06,-169.92,28.0,74,75,3.1,NU,1592870485
548,tullahoma,35.36,-86.21,25.0,88,75,2.1,US,1592870485
549,sampit,-2.53,112.95,24.86,91,65,0.83,ID,1592870485
550,dargaville,-35.93,173.88,15.85,76,44,5.19,NZ,1592870485
551,kaitangata,-46.28,169.85,5.56,78,11,4.02,NZ,1592870485
552,la ronge,55.1,-105.28,24.0,33,40,4.1,CA,1592870215
553,nampula,-15.12,39.27,17.44,94,62,2.51,MZ,1592870485
554,takefu,35.9,136.17,23.0,78,20,2.1,JP,1592870486
555,cam ranh,11.92,109.16,28.0,83,20,0.5,VN,1592869920
556,diamantino,-14.41,-56.45,23.74,48,0,2.16,BR,1592870390
557,panguipulli,-39.63,-72.33,10.0,81,75,3.6,CL,1592870380
558,floresta,-8.6,-38.57,22.49,82,0,5.8,BR,1592870486
559,mount isa,-20.73,139.5,15.0,35,0,4.6,AU,1592870486
560,kudahuvadhoo,2.67,72.89,28.64,76,98,4.52,MV,1592870486
561,vostok,46.49,135.88,17.21,75,96,0.83,RU,1592870486
562,nyaunglebin,17.95,96.73,26.07,87,36,1.31,MM,1592870486
563,hit,33.64,42.83,28.08,17,0,3.11,IQ,1592869918
564,andreyevo,55.95,41.15,11.38,86,56,1.9,RU,1592870487
565,beloha,-25.17,45.05,16.79,97,10,2.36,MG,1592870487
566,lac du bonnet,50.25,-96.06,20.56,49,25,1.79,CA,1592870487
567,kenai,60.55,-151.26,16.11,54,1,6.7,US,1592870487
568,bang saphan,11.21,99.51,24.0,100,20,1.0,TH,1592870487
569,udachnyy,66.42,112.4,21.0,56,36,3.0,RU,1592870487
570,tete,-16.16,33.59,17.07,84,3,1.83,MZ,1592870419
571,yumen,40.28,97.2,21.7,21,25,2.14,CN,1592870487
572,davila,18.47,120.58,28.0,83,75,2.1,PH,1592870488
573,moron,-34.65,-58.62,15.0,93,100,1.79,AR,1592870488
574,port lincoln,-34.73,135.87,12.99,73,70,2.25,AU,1592870488
575,karratha,-20.74,116.85,20.91,36,0,2.94,AU,1592870475
576,cambridge,43.36,-80.31,25.0,69,90,1.5,CA,1592870386
577,nizhneangarsk,55.78,109.55,13.15,65,3,0.74,RU,1592870488
578,bogashevo,56.37,85.14,12.78,87,49,0.36,RU,1592870488
579,ashta,23.02,76.72,26.4,76,100,2.93,IN,1592870488
580,raisen,23.33,77.8,26.34,77,96,2.2,IN,1592870488
581,huntsville,34.73,-86.59,23.0,94,90,3.6,US,1592870277
582,yokadouma,3.52,15.05,20.39,93,5,0.42,CM,1592870489
583,strezhevoy,60.73,77.59,10.0,93,0,2.0,RU,1592870221
584,nuevitas,21.55,-77.26,29.0,83,97,5.1,CU,1592870489
585,mae chan,20.15,99.85,26.67,94,40,1.0,TH,1592870489
586,presidente medici,-11.18,-61.9,23.55,74,77,1.14,BR,1592870489
587,cristalina,-16.77,-47.61,13.68,63,53,2.02,BR,1592870489
588,sistranda,63.73,8.83,14.0,93,75,2.1,NO,1592870489
589,ginir,7.13,40.7,14.74,89,17,2.9,ET,1592870489
590,phalaborwa,-23.94,31.14,11.72,94,0,1.71,ZA,1592870489
591,bay saint louis,30.31,-89.33,28.0,69,40,5.7,US,1592870315
592,dabat,12.98,37.77,12.72,80,100,2.05,ET,1592870489
593,aksu,41.12,80.26,24.45,20,18,3.02,CN,1592869920
594,saint-prosper,46.21,-70.48,25.56,100,22,0.87,CA,1592870490
595,grand-santi,4.25,-54.38,23.43,95,96,0.88,GF,1592870490
596,acapulco,16.86,-99.89,31.0,66,75,4.1,MX,1592870408
597,rocha,-34.48,-54.33,13.93,91,89,4.49,UY,1592869895
598,mortka,59.33,66.02,6.35,83,56,2.05,RU,1592870490
